timestamp,gyro_rad[0],gyro_rad[1],gyro_rad[2],gyro_integral_dt,accelerometer_timestamp_relative,accelerometer_m_s2[0],accelerometer_m_s2[1],accelerometer_m_s2[2],accelerometer_integral_dt
1694784904824398,0.171508,0.131294,0.0143815,4000,0,-0.153605,0.148037,-10.4182,4000
1694784905853706,-0.0205063,-0.00932108,-0.00639158,4000,0,-0.179941,0.128884,-10.1692,4000
1694784906865913,0.00585895,0.000532634,-0.000798949,4000,0,-0.191912,0.154023,-10.168,4000
1694784907877823,0.00479369,-0.00079895,0.00106527,4000,0,-0.200292,0.15522,-10.0507,4000
1694784908873463,-0.000532633,-0.000266316,-0.00346211,4000,0,-0.202686,0.164797,-10.0112,4000
1694784909881767,-0.00612527,-0.0103863,0.00133157,4000,0,-0.194306,0.143249,-9.9322,4000
1694784910906136,0.00585896,-0.00878843,0.00106526,4000,0,-0.209869,0.134869,-9.92981,4000
1694784911897622,-0.00426106,-0.00532632,0.00239685,4000,0,-0.211066,0.128884,-9.93819,4000
1694784912909898,0.00133159,-0.00559264,-0.00346211,4000,0,-0.219445,0.140855,-9.95854,4000
1694784913913960,-0.01012,-0.0111853,-0.00186422,4000,0,-0.163182,0.144446,-10.1142,4000
1694784914921917,0.00133158,-0.00612527,-0.00266316,4000,0,-0.188321,0.149235,-10.0112,4000
1694784915925931,0.00426106,-0.00239684,0.00133158,4000,0,-0.17635,0.121701,-9.9346,4000
1694784916937939,0.00159789,-0.0149137,1.48917e-09,4000,0,-0.153605,0.176768,-9.92622,4000
1694784917942175,0.00292948,-0.00239684,-0.000798944,4000,0,-0.160787,0.143249,-9.89031,4000
1694784918946476,-0.00133158,-0.00106526,0.000532632,4000,0,-0.172758,0.161206,-9.86397,4000
1694784919938704,0.00639159,-0.0015979,-0.000266314,4000,0,-0.183532,0.154023,-9.87833,4000
1694784920955292,-0.000798949,-0.0066579,-0.00106526,4000,0,-0.195503,0.127687,-9.85559,4000
1694784921955993,-0.000798948,-0.00133158,-0.000266316,4000,0,-0.173956,0.168388,-9.82087,4000
1694784922996468,0.0015979,-0.00372843,-0.00372843,4000,0,-0.164379,0.10973,-9.72271,4000
1694784924011409,-0.00612527,-0.00745685,0.00266316,4000,0,-0.177547,0.110927,-9.90347,4000
1694784925017892,-0.00346211,-0.0119842,-0.00266316,4000,0,-0.178744,0.138461,-9.81728,4000
1694784926012663,-0.00292948,0.0066579,-5.13219e-09,4000,0,-0.188321,0.11811,-9.78257,4000
1694784926991673,0.00292948,0.00292948,0.000798947,4000,0,-0.17635,0.132475,-9.87115,4000
1694784928003848,-0.00479369,-0.00426106,0.000532634,4000,0,-0.182335,0.12649,-9.86996,4000
1694784928999768,-0.00186421,-0.00798949,-0.000266312,4000,0,-0.151211,0.110927,-9.80292,4000
1694784930003801,-0.000532632,-0.00133158,-0.0015979,4000,0,-0.181138,0.140855,-9.86636,4000
1694784931023763,-0.00239684,-0.00958738,-0.00053263,4000,0,-0.188321,0.108533,-9.81968,4000
1694784932023336,-0.00266316,-0.00106527,-0.00133158,4000,0,-0.188321,0.0977592,-9.81968,4000
1694784933030662,-0.00532633,-0.0111853,0.00213052,4000,0,-0.207474,0.114519,-9.77299,4000
1694784934038187,0.00239684,-0.00692422,-0.00266316,4000,0,-0.182335,0.104942,-9.80651,4000
1694784935073539,-0.00106526,-0.0015979,1.1396e-10,4000,0,-0.184729,0.130081,-9.84003,4000
1694784936067445,0.000798948,-0.00186421,1.10225e-09,4000,0,-0.166773,0.115716,-9.86517,4000
1694784937050084,0.00319579,-0.00346211,0.000266318,4000,0,-0.194306,0.131278,-9.85679,4000
1694784938069611,-0.00612527,-0.0106526,-0.00213053,4000,0,-0.235008,0.0917737,-9.78376,4000
1694784939080100,-0.00719054,-0.0015979,0.000266312,4000,0,-0.200292,0.0594519,-9.83045,4000
1694784940074896,-0.000798945,-0.00612527,-0.000266317,4000,0,-0.17635,0.0726201,-9.80411,4000
1694784941109883,-0.00106526,-0.00266316,-0.00292948,4000,0,-0.17635,0.0929708,-9.79454,4000
1694784942087709,0.00585896,-0.00426106,0.00106527,4000,0,-0.185927,0.0546636,-9.83883,4000
1694784943113298,0.00106527,-0.00532632,-2.82093e-10,4000,0,-0.183532,0.0989563,-9.83284,4000
1694784944122469,-0.00346211,0.00133158,0.00053263,4000,0,-0.208672,0.0786056,-9.83404,4000
1694784945087576,-0.00452738,0.00346211,0.000266312,4000,0,-0.154802,0.0642404,-9.81489,4000
1694784946082820,0.00346211,-0.0098537,0.000266321,4000,0,-0.171561,0.100153,-9.81369,4000
1694784947105987,0.00266316,-0.00239684,-0.00239685,4000,0,-0.177547,0.0941679,-9.81249,4000
1694784948112156,-0.00239684,-1.22976e-09,-0.00133158,4000,0,-0.173956,0.100153,-9.90228,4000
1694784949114141,0.00426106,-0.00719054,1.26935e-09,4000,0,-0.142831,0.0534664,-9.83165,4000
1694784950097133,1.58398e-09,-0.00452738,0.000266317,4000,0,-0.195503,0.0750143,-9.85679,4000
1694784951112370,-0.00239685,-0.0111853,-0.000266311,4000,0,-0.201489,0.0235389,-9.83524,4000
1694784952103373,-0.0082558,-0.00479369,-4.38288e-10,4000,0,-0.197898,0.0869853,-9.85918,4000
1694784953138328,-0.00452738,-0.00532632,0.0119842,4000,0,-0.178744,0.0750143,-9.82566,4000
1694784954156880,-0.00878843,-0.00639159,-0.000798957,4000,0,-0.164379,0.095365,-9.84481,4000
1694784955142721,0.00319579,-0.00292948,-0.00133157,4000,0,-0.161985,0.114519,-9.83643,4000
1694784956141222,-0.00319579,-0.00692422,0.00106526,4000,0,-0.155999,0.0893795,-9.84003,4000
1694784957131926,0.000798956,-0.00719054,-0.00532632,4000,0,-0.178744,0.0869853,-9.81608,4000
1694784958134269,0.00106527,-0.00532632,-0.00372842,4000,0,-0.175153,0.0534664,-9.28816,4000
1694784959140712,-0.00479369,-0.00532632,7.5813e-10,4000,0,-0.193109,0.0941679,-9.00685,4000
1694784960143353,-0.00133158,-0.00133158,-0.000532634,4000,0,-0.170364,0.0402983,-9.20437,4000
1694784961142496,0.00346211,-0.00692422,0.00239685,4000,0,-0.166773,0.0654375,-9.36478,4000
1694784962150064,-0.00133158,-0.0098537,0.00106527,4000,0,-0.188321,0.0702259,-9.53836,4000
1694784963177387,-0.473509,0.433562,-0.945157,4000,0,-0.0865672,0.286901,-9.1074,4000
1694784964188165,-0.0599215,-0.0194411,-0.845554,4000,0,-0.305637,1.28768,-9.95974,4000
1694784965190472,-0.0972063,-0.0857528,-0.774181,4000,0,-1.83194,1.24817,-9.83404,4000
1694784966188699,0.10626,-0.131562,-0.544616,4000,0,-3.00151,-0.151238,-9.73827,4000
1694784967198596,0.064182,0.203732,0.0609864,4000,0,-3.74371,0.0175534,-9.21634,4000
1694784968205359,0.0410126,-0.0878844,7.07616e-08,4000,0,-4.02144,0.0319186,-9.04635,4000
1694784969203995,0.00745685,-0.0143811,-0.00106528,4000,0,-4.01306,0.0869853,-9.07628,4000
1694784970202141,0.0167779,-0.0103863,-0.00772315,4000,0,-4.06573,0.128884,-8.99487,4000
1694784971204568,-0.00745686,-0.00719053,-0.00426106,4000,0,-4.13397,0.0941679,-8.99966,4000
1694784972235208,-0.00479369,-0.00612527,0.00159789,4000,0,-4.14953,0.0702258,-8.92065,4000
1694784973236971,0.00612527,-0.00905475,-0.00106527,4000,0,-4.21657,0.11811,-8.96614,4000
1694784974226700,0.00213054,-0.00745685,-0.00292948,4000,0,-4.21058,0.122898,-8.93622,4000
1694784975233184,-0.0015979,-0.00958738,-3.71355e-09,4000,0,-4.25008,0.120504,-8.90629,4000
1694784976234854,-0.00346211,-0.00559264,-0.00186421,4000,0,-4.27762,0.160008,-8.90749,4000
1694784977133281,0.00319579,-0.00426106,-0.000532634,4000,0,-4.30276,0.134869,-8.92664,4000
1694784978132419,-0.0082558,-0.00346211,2.82383e-09,4000,0,-4.30874,0.083394,-8.88115,4000
1694784979135477,-0.00798948,-0.0031958,-8.99224e-09,4000,0,-4.3279,0.0702258,-8.89791,4000
1694784980139089,-0.00772317,-0.00399474,-0.00133158,4000,0,-4.33388,0.104942,-8.862,4000
1694784981135020,0.01012,-0.00506,-0.00186422,4000,0,-4.37578,0.0786055,-8.85721,4000
1694784982143591,-0.00692422,-0.00559264,-0.000532637,4000,0,-4.3662,0.0857882,-8.85002,4000
1694784983140176,0.00532633,-0.00319579,-0.00479369,4000,0,-4.41169,0.0666345,-8.88474,4000
1694784984065116,0.000266316,-0.00239685,-0.00239684,4000,0,-4.41648,0.0869853,-8.862,4000
1694784985073613,0.00266316,-0.00292948,-0.000266316,4000,0,-4.41888,0.11811,-8.88713,4000
1694784986090661,5.20111e-10,-0.00186421,-0.00346211,4000,0,-4.42726,0.0929708,-8.88594,4000
1694784987115340,0.0015979,-0.00213053,-0.00106526,4000,0,-4.38416,0.0750142,-8.85242,4000
1694784988112031,0.00399474,-0.00133158,-0.00186421,4000,0,-4.38416,0.0965621,-8.87636,4000
1694784989140433,-0.00399474,-0.00399474,-0.00213053,4000,0,-4.40092,0.0941679,-8.9015,4000
1694784990149205,-0.00213053,-0.00426106,-0.00266316,4000,0,-4.41169,0.095365,-8.91227,4000
1694784991153321,0.00319579,0.00106526,0.000798951,4000,0,-4.4081,0.0474809,-8.89911,4000
1694784992169559,-0.000798949,-0.00399474,0.00106526,4000,0,-4.38536,0.0809998,-8.86559,4000
1694784993162656,-0.00133158,-0.00559264,-0.00399474,4000,0,-4.39493,0.0750142,-8.85481,4000
1694784994175656,-0.00213053,-0.0031958,-0.000532633,4000,0,-4.40331,0.0534664,-8.88354,4000
1694784995108127,-0.00292948,-0.00133158,-0.00292948,4000,0,-4.36261,0.0798026,-8.80453,4000
1694784996120692,-0.00053263,-0.00292948,-0.00292948,4000,0,-4.37937,0.0582548,-8.88354,4000
1694784997133235,-0.00266316,-0.00852212,-0.000798944,4000,0,-4.38177,0.0714229,-8.87636,4000
1694784998157023,0.000532633,-0.00266316,-0.00186421,4000,0,-4.38536,0.0450867,-8.88235,4000
1694784999184557,-5.67395e-10,-0.00852212,-0.0031958,4000,0,-4.35902,0.0331157,-8.79735,4000
1694785000188221,-0.00346211,-0.000266317,-0.0015979,4000,0,-4.35782,0.0426925,-8.85362,4000
1694785001219205,-0.00532632,-0.00905475,-0.00452738,4000,0,-4.37099,0.0175534,-8.80094,4000
1694785002217985,-0.00399474,-0.00346211,0.00106527,4000,0,-4.37458,0.0307215,-8.88833,4000
1694785003244299,-0.00266316,-0.00719054,-0.00186421,4000,0,-4.38895,0.0462838,-8.85721,4000
1694785004258364,-0.00106526,-0.00266316,0.00106527,4000,0,-4.42366,0.0283273,-8.87876,4000
1694785005260483,0.00399474,-0.000798947,0.000798952,4000,0,-4.38895,0.0343128,-8.90389,4000
1694785006262877,0.00106526,-0.00612527,-0.00239684,4000,0,-4.35064,0.0283273,-8.89312,4000
1694785007277348,0.0031958,-0.00798948,-0.00612527,4000,0,-4.37458,0.0594519,-8.88833,4000
1694785008273348,-0.000532632,-0.00559264,-0.00239685,4000,0,-4.39493,0.0750142,-8.88354,4000
1694785009291348,0.00079895,-0.01012,0.000532635,4000,0,-4.36261,0.0319186,-8.90749,4000
1694785010300775,-0.00399474,-0.00479369,0.000532638,4000,0,-4.40092,0.0379041,-8.87038,4000
1694785011313916,0.00133158,-0.00506,-0.0031958,4000,0,-4.38416,0.0462838,-8.86559,4000
1694785012326966,0.00346211,-0.00239685,-0.000266314,4000,0,-4.4069,0.0426925,-8.8608,4000
1694785013351609,-0.00612527,0.00106527,0.000798945,4000,0,-4.40571,0.0211447,-8.85122,4000
1694785014351461,0.00426106,-0.00639159,-0.00319579,4000,0,-4.39493,0.0259331,-8.8596,4000
1694785015363424,0.000798945,-0.00399474,-0.000266316,4000,0,-4.37099,0.0379041,-8.85362,4000
1694785016375312,-0.00239685,-0.00133158,-0.00266316,4000,0,-4.43324,0.00677949,-8.86798,4000
1694785017382995,0.000798952,-0.00612527,-0.000798948,4000,0,-4.36501,-0.00519152,-8.84643,4000
1694785018394396,0.00639159,-0.00319579,-0.00239684,4000,0,-4.39015,0.0283273,-8.85242,4000
1694785019393707,0.0015979,-0.00639159,-0.00106527,4000,0,-4.42486,0.0187505,-8.82369,4000
1694785020409048,0.00213053,-0.000532632,0.00213053,4000,0,-4.37578,-0.000403118,-8.80094,4000
1694785021403872,-0.00239684,-0.00559264,-0.000266322,4000,0,-4.42726,0.0223418,-8.80214,4000
1694785022422899,0.00372843,-0.0149137,-0.00346212,4000,0,-4.41289,-0.0303306,-8.84883,4000
1694785023425560,-0.000266317,-0.00133158,0.000798948,4000,0,-4.41768,-0.0506814,-8.82728,4000
1694785024444070,0.00426106,-0.00958738,-0.00213052,4000,0,-4.3674,-0.00758572,-8.84883,4000
1694785025442096,-0.00798948,-0.00452738,0.000798944,4000,0,-4.38416,-0.00758572,-8.8608,4000
1694785026468157,-3.5935e-09,-0.00692422,-0.00213053,4000,0,-4.41169,-0.0291335,-8.83686,4000
1694785027461332,-0.00452737,-0.00506001,-0.00559264,4000,0,-4.38895,-0.0399074,-8.87876,4000
1694785028470870,-0.00133157,-0.00852212,0.00106526,4000,0,-4.39254,-0.0399074,-8.86559,4000
1694785029496290,-0.000532632,-0.00452737,-0.00372843,4000,0,-4.42845,-0.0710321,-8.85601,4000
1694785030428777,0.00559264,-0.00372843,0.00106526,4000,0,-4.3674,-0.0638495,-8.87277,4000
1694785031441079,-0.00532632,-0.00852212,0.000798945,4000,0,-4.34585,-0.0686379,-8.88235,4000
1694785032444754,-0.00798949,-0.00426105,-0.00266316,4000,0,-4.4069,-0.0770176,-8.85481,4000
1694785033459702,0.00346211,-0.00372843,-0.00053263,4000,0,-4.37099,-0.0423016,-8.86678,4000
1694785034442855,0.000798953,-0.00958738,-0.00213053,4000,0,-4.38416,-0.0794118,-8.89791,4000
1694785035458021,0.00292948,-0.00346211,-0.000266317,4000,0,-4.39972,-0.0758205,-8.87397,4000
1694785036449374,-0.00319579,-0.00426106,-0.00292948,4000,0,-4.35663,-0.0446958,-8.87995,4000
1694785037480168,-0.00213053,-0.00958738,-0.00399474,4000,0,-4.34106,-0.04709,-8.862,4000
1694785038478983,-0.00213053,-0.00692422,7.30241e-10,4000,0,-4.35782,-0.0650466,-8.83446,4000
1694785039473892,-0.000798949,-0.0015979,-0.00213053,4000,0,-4.39613,-0.0614553,-8.92305,4000
1694785040492166,0.00452737,-0.00692422,0.00346211,4000,0,-4.34705,-0.0770176,-8.86678,4000
1694785041506524,-0.00186421,-0.00852212,-0.00186421,4000,0,-4.37578,-0.0626524,-8.90988,4000
1694785042559685,0.00372843,-0.00559264,-0.00346211,4000,0,-4.33987,-0.0638495,-8.88474,4000
1694785043431873,0.000798949,-0.00452738,2.4979e-09,4000,0,-4.35663,-0.0925799,-8.89911,4000
1694785044441051,0.00692421,-0.00825581,-0.000798944,4000,0,-4.34944,-0.0973683,-8.87157,4000
1694785045454076,0.000532629,-0.00426106,0.00133158,4000,0,-4.39733,-0.0830031,-8.85242,4000
1694785046462870,-0.00479369,-0.00266316,-0.00239685,4000,0,-4.36501,-0.0830031,-8.88594,4000
1694785047371255,-0.0082558,-0.00532632,0.000266311,4000,0,-4.38296,-0.114128,-8.84883,4000
1694785048406817,0.0553933,0.431166,-0.0151801,4000,0,-4.39733,-0.114128,-8.91586,4000
1694785049418351,-0.015979,0.102798,-0.00319584,4000,0,-3.80476,-0.142858,-9.58385,4000
1694785050429628,-0.0245011,0.0647148,0.0127832,4000,0,-2.95003,-0.0387103,-9.79693,4000
1694785051452649,0.00239683,0.0410127,-0.0127832,4000,0,-2.15276,0.060649,-9.93939,4000
1694785052454874,0.0857538,-0.000798911,0.00133155,4000,0,-1.48358,0.149235,-10.0268,4000
1694785053465005,0.00719054,-0.0066579,0.00346211,4000,0,-0.995167,0.128884,-9.97171,4000
1694785054498574,0.00159791,-0.00772286,-0.252734,4000,0,-0.595335,-0.0243451,-12.4282,4000
1694785055519566,-0.00852212,-0.414122,0.00426108,4000,0,-0.32479,0.0726201,-9.95615,4000
1694785056528146,-0.00346211,-0.118244,-0.00133143,4000,0,-1.16994,0.142052,-10.113,4000
1694785057536090,0.00559263,-0.0298274,0.000532621,4000,0,-2.12643,0.139658,-9.69159,4000
1694785058552006,0.00985366,-0.0788296,0.00159787,4000,0,-3.02665,0.131278,-9.49526,4000
1694785059571554,-0.00852212,0.312655,0.000266345,4000,0,-3.89455,0.108533,-8.84045,4000
1694785060578903,0.00213053,0.00399474,0.00292948,4000,0,-3.96996,0.115716,-9.05952,4000
1694785061582102,0.00585896,-0.00346211,-0.00079895,4000,0,-4.01665,0.110927,-8.99966,4000
1694785062619368,-0.00159789,-0.00745685,-0.00399474,4000,0,-4.07411,0.119307,-8.99966,4000
1694785063636423,0.00213053,-0.00186421,-0.0015979,4000,0,-4.08369,0.0929708,-8.97333,4000
1694785064648795,-0.00559264,-0.0066579,-0.00292948,4000,0,-4.13277,0.106139,-8.97093,4000
1694785065626003,0.00506001,-0.000798949,0.000532632,4000,0,-4.13995,0.0762113,-8.95417,4000
1694785066619719,0.00292948,-0.00292948,-0.000798945,4000,0,-4.19143,0.0857882,-8.94579,4000
1694785067335719,-0.00399474,-0.00372842,0.00106526,4000,0,-4.20579,0.0786055,-8.95657,4000
1694785068296011,3.40437e-09,-0.00639159,0.000532632,4000,0,-4.2034,0.0642403,-8.95417,4000
1694785069343386,0.00372843,-0.00612527,0.00106527,4000,0,-4.18783,0.0666345,-8.93502,4000
1694785070368476,-0.000532631,-1.34876e-09,-0.00399474,4000,0,-4.2046,0.0594519,-8.9446,4000
1694785071393291,-0.00292948,-0.00506001,-0.000532633,4000,0,-4.21178,0.0786055,-8.90389,4000
1694785072285891,0.00266316,-0.00932106,-0.00106526,4000,0,-4.20699,0.0618461,-8.95896,4000
1694785073191047,0.00319579,-0.00479369,-2.21139e-09,4000,0,-4.25008,0.0450867,-8.9446,4000
1694785074228372,-0.00239685,-0.00958738,-0.00133159,4000,0,-4.26804,0.100153,-8.91347,4000
1694785075256839,-0.00372843,-0.00133158,-0.00292948,4000,0,-4.24769,0.0438896,-8.90509,4000
1694785076308258,-0.00426106,0.000798949,-0.000266318,4000,0,-4.22854,0.0307215,-8.82608,4000
1694785077319452,0.00239684,0.00292948,0.00106526,4000,0,-4.2429,-0.00279732,-8.9027,4000
1694785078369432,-0.00426106,-0.00905475,0.000266304,4000,0,-4.21896,0.0319186,-8.89432,4000
1694785079367714,-0.0066579,-0.00932106,-0.0015979,4000,0,-4.23572,0.0271302,-8.92664,4000
1694785080401170,0.00133158,0.00878844,-0.00133157,4000,0,-4.23452,0.0450867,-8.92065,4000
1694785081418426,0.00213053,-0.00719054,0.00026632,4000,0,-4.19143,0.0498751,-8.92544,4000
1694785082443528,0.00266316,-0.00559264,-0.0015979,4000,0,-4.18424,0.0414954,-8.89312,4000
1694785083475705,0.0015979,-0.00479369,-0.000798943,4000,0,-4.19502,0.0355099,-8.88115,4000
1694785084503542,0.000798947,-0.00532632,-3.35548e-09,4000,0,-4.2022,0.0379041,-8.89192,4000
1694785085520096,-0.00266316,-0.00559264,3.94507e-09,4000,0,-4.23213,0.0391012,-8.94579,4000
1694785086550498,-0.00213053,-0.000532632,-0.00106526,4000,0,-4.2429,0.0115679,-8.98051,4000
1694785087540531,0.00612527,-0.00266316,-0.00106527,4000,0,-4.19023,0.000793987,-8.88594,4000
1694785088554466,1.20571e-09,0.00292948,0.00239685,4000,0,-4.22854,0.0151592,-8.92544,4000
1694785089576549,-0.00186422,-0.0066579,0.00106526,4000,0,-4.28001,-0.00279732,-8.91706,4000
1694785090629440,0.00266316,-0.00346211,0.000266314,4000,0,-4.22973,-0.00638862,-8.89791,4000
1694785091629743,0.00186421,-0.00878844,0.00372842,4000,0,-4.20699,0.012765,-8.92664,4000
1694785092649581,-0.00266315,-0.0114516,-0.00213053,4000,0,-4.21776,-0.0135712,-8.88235,4000
1694785093684364,0.00612526,-0.01518,-0.000266321,4000,0,-4.18664,-0.0530756,-8.85242,4000
1694785094714184,-0.00186421,-0.00772317,-0.00106527,4000,0,-4.19981,-0.0590611,-8.84164,4000
1694785095727281,-0.000798943,-0.00692422,-0.00292948,4000,0,-4.20938,-0.0506814,-8.94699,4000
1694785096708791,0.000532632,-0.00106526,-0.000266317,4000,0,-4.22255,-0.0267393,-8.9003,4000
1694785097722455,1.74947e-09,-0.00239685,-0.00213053,4000,0,-4.18544,-0.0399074,-8.89551,4000
1694785098731221,-0.0082558,-0.00479369,-0.000266313,4000,0,-4.19143,-0.0207538,-8.84643,4000
1694785099759547,-0.00266317,-0.0106526,-0.000266326,4000,0,-4.16749,-0.057864,-8.87756,4000
1694785100779658,0.000266319,-0.00452738,3.93811e-10,4000,0,-4.19382,-0.0758205,-8.97093,4000
1694785101779100,0.00079895,-0.00426106,-0.00106527,4000,0,-4.17347,-0.0758205,-8.78299,4000
1694785102813809,0.00399474,-0.00452737,2.19056e-09,4000,0,-4.21657,-0.0602582,-8.84763,4000
1694785103836425,-0.00346211,-0.00372842,-0.000266316,4000,0,-4.21058,-0.0602582,-8.87995,4000
1694785104829715,0.0066579,-0.0114516,-0.00133159,4000,0,-4.18783,-0.0925799,-8.81052,4000
1694785105859099,0.00266316,-0.00133158,-2.38738e-09,4000,0,-4.19622,-0.0973683,-8.83446,4000
1694785106856161,0.00106526,-0.00452738,-0.00213053,4000,0,-4.23692,-0.111734,-8.88833,4000
1694785107872857,-0.000532624,-0.00612527,0.000266318,4000,0,-4.23213,-0.108142,-8.90988,4000
1694785108873227,0.00532632,-0.00239685,-0.000266316,4000,0,-4.22016,-0.0853973,-8.862,4000
1694785109897450,-0.00319579,-0.00159789,0.00452738,4000,0,-4.22016,-0.0758205,-8.87277,4000
1694785110904789,0,0.00239685,-1.02203e-09,4000,0,-4.21896,-0.153632,-8.87038,4000
1694785111923979,0.00479369,-0.00452738,-0.00213053,4000,0,-4.2429,-0.112931,-8.87397,4000
1694785112934371,-0.000798947,-0.00559264,-0.00133158,4000,0,-4.26804,-0.109339,-8.84524,4000
1694785113940806,-0.00692422,-0.00266316,0.000532629,4000,0,-4.24769,-0.117719,-8.90988,4000
1694785114958323,0.00452737,-0.00532632,-0.0015979,4000,0,-4.25846,-0.0913828,-8.93502,4000
1694785115967355,0.00772317,-0.000532629,-0.00186421,4000,0,-4.2429,-0.0710321,-8.91586,4000
1694785116976370,0.0213053,-0.00239684,-0.00372841,4000,0,-4.20699,-0.0746234,-8.8596,4000
1694785117952797,0.00106527,-0.00506001,-0.000798951,4000,0,-4.21537,-0.0901857,-8.86678,4000
1694785118954256,0.000532632,-0.00213053,0.00292948,4000,0,-4.25966,-0.112931,-8.89671,4000
1694785119882206,-0.0066579,-0.00426106,-0.00133158,4000,0,-4.22854,-0.0913828,-8.92305,4000
1694785120901468,-0.00452737,-0.00532632,0.000266316,4000,0,-4.25846,-0.110536,-8.92544,4000
1694785121908594,0.0015979,-0.00106526,-0.00133158,4000,0,-4.27522,-0.104551,-8.95178,4000
1694785122903689,0.00932106,0.00559264,-0.000532634,4000,0,-4.27043,-0.128493,-8.91586,4000
1694785123902758,-0.00772317,-0.00159789,0.000798957,4000,0,-4.25487,-0.182362,-8.91227,4000
1694785124925123,-0.00905475,-0.00159789,0.00239684,4000,0,-4.26445,-0.142858,-8.98051,4000
1694785125935074,0.00133158,-0.00958738,0.000266309,4000,0,-4.2417,-0.152435,-8.87277,4000
1694785126937205,-0.00372843,-0.0015979,0.000532632,4000,0,-4.21178,-0.126099,-8.90868,4000
1694785127943184,-0.00106526,-0.00585896,-0.00239684,4000,0,-4.22734,-0.135676,-8.91826,4000
1694785128931184,0.00479369,0.000266316,-0.00133158,4000,0,-4.22854,-0.163209,-8.89432,4000
1694785129973588,-0.00399474,-0.00532632,-0.000798947,4000,0,-4.21776,-0.156026,-8.93981,4000
1694785130961588,0.0154463,0.00239684,-0.0018642,4000,0,-4.27881,-0.145252,-8.94819,4000
1694785131982414,-0.00506001,-0.00292948,-0.00292947,4000,0,-4.26206,-0.134478,-8.9027,4000
1694785132994644,-0.000532628,-0.00905475,-0.0015979,4000,0,-4.27881,-0.133281,-8.91227,4000
1694785133982473,0.00905474,0.00825581,-0.00133159,4000,0,-4.23452,-0.162012,-8.94699,4000
1694785135022450,-1.15843e-09,-0.00186421,6.29423e-10,4000,0,-4.23333,-0.142858,-8.91108,4000
1694785136033252,0.0015979,-0.00186421,-0.00106526,4000,0,-4.24769,-0.142858,-8.91586,4000
1694785137047681,-0.00239684,-0.00506001,0.000266316,4000,0,-4.22734,-0.148844,-8.87636,4000
1694785138045699,0.00532632,0.00159789,0.000266316,4000,0,-4.21896,-0.177574,-8.89432,4000
1694785139059753,0.00372843,0.00213053,-0.000266315,4000,0,-4.23093,-0.196728,-8.90988,4000
1694785140073506,2.60056e-10,-0.00292948,-1.87152e-09,4000,0,-4.23452,-0.167997,-8.9446,4000
1694785141063122,-0.00399474,-0.00426106,0.0015979,4000,0,-4.24051,-0.20391,-8.95537,4000
1694785142081162,0.000266316,0.00266316,0.000532633,4000,0,-4.22734,-0.172786,-8.87876,4000
1694785143098507,0.00905474,-0.00506002,0.00213054,4000,0,-4.25727,-0.181165,-8.90389,4000
1694785144091629,0.00399474,-0.00346211,-0.00079895,4000,0,-4.22255,-0.208699,-8.99248,4000
1694785145116605,-0.000798947,-0.00905475,-0.000798949,4000,0,-4.25128,-0.218275,-8.96495,4000
1694785146144955,-0.00106526,0.00106526,0.00079895,4000,0,-4.20699,-0.236232,-8.90389,4000
1694785147160533,0.00692422,-0.00239684,-0.0015979,4000,0,-4.25966,-0.207502,-8.95058,4000
1694785148159497,0.00452738,-0.01012,-0.00266317,4000,0,-4.23931,-0.227852,-8.95537,4000
1694785149142307,0.00905475,-0.00559264,0.0015979,4000,0,-4.26325,-0.208699,-8.92903,4000
1694785150145472,0.000798951,-0.0066579,-0.0015979,4000,0,-4.24649,-0.261371,-8.92544,4000
1694785151184788,-0.00266316,-0.00719054,0.000798949,4000,0,-4.27762,-0.248203,-8.96614,4000
1694785152198769,-0.00639159,-0.00399474,0.00186421,4000,0,-4.23333,-0.221867,-8.89911,4000
1694785153200242,-0.00106526,-0.00186421,-0.000798949,4000,0,-4.23692,-0.235035,-8.95657,4000
1694785154185570,-0.000266317,-0.00266316,0.00106526,4000,0,-4.2417,-0.223064,-8.93981,4000
1694785155167400,0.00532632,-3.05015e-09,-0.00133158,4000,0,-4.27283,-0.22067,-9.01642,4000
1694785156173477,-0.00479369,-0.00745685,-0.0015979,4000,0,-4.2429,-0.242217,-8.92424,4000
1694785157183345,0.0015979,-0.00506001,-0.00319579,4000,0,-4.22973,-0.258977,-8.95657,4000
1694785158180977,0.000266317,-0.00585896,-0.000266315,4000,0,-4.23333,-0.269751,-9.01762,4000
1694785159182523,-8.98374e-10,0.0015979,-0.000266315,4000,0,-4.28121,-0.282919,-9.026,4000
1694785160203957,-0.00612527,-0.0114516,0.00186421,4000,0,-4.26325,-0.314044,-8.9841,4000
1694785161192580,-0.00266316,-0.00372842,0.00292948,4000,0,-4.27163,-0.334394,-8.97093,4000
1694785162213523,0.00106527,-0.00639159,-0.00319579,4000,0,-4.201,-0.299678,-8.95178,4000
1694785163213952,0.00186421,-0.00852212,0.000532632,4000,0,-4.22614,-0.314044,-9.05114,4000
1694785164225890,0.00532634,0.0274306,-0.00372842,4000,0,-4.1196,-0.321226,-9.0655,4000
1694785165222088,-0.0498011,0.0790959,0.0745685,4000,0,-3.38099,-0.267357,-9.22113,4000
1694785166226022,-0.00585893,0.0532632,0.00319585,4000,0,-2.60287,-0.0865944,-9.52399,4000
1694785167225972,0.00133157,0.0287621,-0.00106526,4000,0,-1.86546,0.0115679,-9.63293,4000
1694785168218026,0.00186421,0.00266316,0.00159789,4000,0,-1.25733,-0.0135712,-9.79813,4000
1694785169222103,-0.00559263,-0.0335558,-0.00825581,4000,0,-0.754549,0.00677951,-9.77179,4000
1694785170210490,0.172839,-0.354734,0.152599,4000,0,-0.794054,-0.403826,-10.0016,4000
1694785171198705,0.0388821,-0.109456,0.0348874,4000,0,-1.71223,-0.674371,-10.2016,4000
1694785172210908,0.00506002,-0.0338221,0.00852212,4000,0,-2.68547,-0.999982,-9.86996,4000
1694785173211422,-0.00852214,0.0034621,0.01012,4000,0,-3.50429,-1.33038,-9.27619,4000
1694785174215575,0.0383496,-0.122239,-0.0284959,4000,0,-3.8706,-1.60452,-9.16007,4000
1694785175223616,0.00479369,-0.01518,-0.000798945,4000,0,-3.80835,-1.62487,-9.05712,4000
1694785176207284,-0.00106527,-0.00639159,0.000798945,4000,0,-3.84786,-1.66078,-8.99248,4000
1694785177219923,-0.000532626,-0.00798948,-0.0015979,4000,0,-3.86821,-1.67275,-9.00804,4000
1694785178207956,0.00426106,-0.00106527,-0.00346211,4000,0,-3.8718,-1.68951,-9.00924,4000
1694785179184518,0.00426106,-0.00559264,-0.00452737,4000,0,-3.88377,-1.72423,-8.98649,4000
1694785180205287,-0.0015979,-0.000798948,-0.00239685,4000,0,-3.88377,-1.7757,-8.96016,4000
1694785181201766,0.00266317,-0.00426105,-0.00745685,4000,0,-3.8718,-1.85232,-9.00206,4000
1694785182205960,-0.00372843,-0.00719053,-1.16862e-08,4000,0,-3.86103,-1.83556,-8.94819,4000
1694785183226196,-0.00213053,-0.00506001,-0.0015979,4000,0,-3.84427,-1.87267,-8.9817,4000
1694785184218488,0.00159789,-0.00612527,-0.00186421,4000,0,-3.84307,-1.89781,-8.93622,4000
1694785185222524,0.00106527,-0.00266316,-0.0082558,4000,0,-3.86701,-1.86668,-8.94819,4000
1694785186202674,0.00639159,0.00239685,-0.00399474,4000,0,-3.82392,-1.92534,-8.96495,4000
1694785187207217,-0.000266313,-0.00612527,-0.00958738,4000,0,-3.84906,-1.96245,-8.95298,4000
1694785188211788,-0.000266319,-0.00186421,-0.00639159,4000,0,-3.80835,-1.96125,-8.9422,4000
1694785189200063,0.00159789,-0.00506001,-0.00399474,4000,0,-3.82631,-1.98639,-8.92305,4000
1694785190220529,-0.00346211,-0.00159789,-0.00479369,4000,0,-3.82871,-1.99358,-8.92065,4000
1694785191224828,-0.000532642,-0.00426106,-0.00426106,4000,0,-3.79997,-2.0678,-8.90749,4000
1694785192220996,0.00292948,-0.000532632,-0.00772317,4000,0,-3.788,-2.07857,-8.91826,4000
1694785193225932,0.00266315,-0.00292948,-0.00639159,4000,0,-3.80716,-2.11329,-8.96135,4000
1694785194234346,-0.000798954,-0.00719054,-0.00319579,4000,0,-3.72935,-2.12645,-8.90988,4000
1694785195226492,0.00426106,-0.00399474,-0.00852211,4000,0,-3.77244,-2.16835,-8.90868,4000
1694785196242539,-0.00239684,-0.00106526,-0.00559264,4000,0,-3.73533,-2.20067,-8.87277,4000
1694785197234584,-0.00639159,-0.00133158,-0.00719054,4000,0,-3.68625,-2.26292,-8.9015,4000
1694785198219108,0.00745685,-0.0031958,-0.0125169,4000,0,-3.65991,-2.2725,-8.95776,4000
1694785199235400,0.00292948,-0.0031958,-0.00772317,4000,0,-3.6659,-2.29644,-8.89911,4000
1694785200211522,-0.000798939,-0.00479369,-0.0114516,4000,0,-3.67787,-2.312,-8.92424,4000
1694785201208469,-0.0063916,-0.0106526,-0.0066579,4000,0,-3.62759,-2.34433,-8.93143,4000
1694785202201383,0.0015979,-0.00186421,-0.00932106,4000,0,-3.59886,-2.34313,-8.91586,4000
1694785203250575,-0.00399474,-0.00372842,-0.00692422,4000,0,-3.56654,-2.42693,-8.95058,4000
1694785204274758,0.00186422,-0.00692422,-0.0111853,4000,0,-3.55577,-2.44488,-8.89432,4000
1694785205270721,0.00719053,-0.00213053,-0.00798949,4000,0,-3.48274,-2.44967,-8.88833,4000
1694785206250673,-0.00213053,-0.00452738,-0.0066579,4000,0,-3.51028,-2.52269,-8.93262,4000
1694785207223310,0.00106525,-0.00612527,-0.00932107,4000,0,-3.4588,-2.56818,-8.9027,4000
1694785208220374,0.00372843,0.00292948,-0.0066579,4000,0,-3.44444,-2.60649,-8.82129,4000
1694785209233553,-0.00426105,-0.00452737,-0.0127832,4000,0,-3.42887,-2.61008,-8.92305,4000
1694785210222697,0.00239685,-0.0031958,-0.0125169,4000,0,-3.40613,-2.71902,-8.89911,4000
1694785211240139,-0.0082558,-0.00532633,-0.0125169,4000,0,-3.39535,-2.70465,-8.87516,4000
1694785212249223,2.48235e-09,-0.00186421,-0.00745685,4000,0,-3.33191,-2.75493,-8.89671,4000
1694785213246213,0.00506,-0.00266316,-0.0114516,4000,0,-3.30797,-2.74775,-8.87157,4000
1694785214247441,-0.00399473,-0.00426105,-0.0111853,4000,0,-3.27924,-2.82915,-8.92664,4000
1694785215252942,-0.00772317,-0.00292948,-0.0165116,4000,0,-3.23375,-2.86387,-8.90389,4000
1694785216265889,-0.00452738,-0.00506001,-0.0133158,4000,0,-3.15713,-2.91534,-8.91586,4000
1694785217262878,-0.00399475,-0.0066579,-0.015979,4000,0,-3.14277,-2.95006,-8.91108,4000
1694785218260061,0.00239684,-1.82742e-08,-0.0135821,4000,0,-3.07333,-2.97999,-8.91347,4000
1694785219233529,-0.000532632,-0.00932106,-0.0143811,4000,0,-3.06136,-2.99555,-8.88833,4000
1694785220227439,-0.00186421,-0.00426106,-0.015979,4000,0,-2.97158,-3.0985,-8.92065,4000
1694785221221138,3.90083e-09,-0.00159791,-0.0162453,4000,0,-2.97397,-3.10449,-8.91946,4000
1694785222242964,0.00346211,0.0015979,-0.0165116,4000,0,-2.89856,-3.14399,-8.90868,4000
1694785223252648,0.00186421,-0.00133158,-0.0181095,4000,0,-2.81596,-3.18828,-8.94699,4000
1694785224270428,0.00319579,0.00106527,-0.0127832,4000,0,-2.80399,-3.20385,-8.88354,4000
1694785225260027,0.00532632,-0.00026632,-0.0149137,4000,0,-2.73695,-3.31039,-8.9003,4000
1694785226277703,-0.00239684,0.00106526,-0.0178432,4000,0,-2.66033,-3.34869,-8.91467,4000
1694785227263485,0.000532648,-0.00559264,-0.0165116,4000,0,-2.58252,-3.41094,-8.96614,4000
1694785228296977,0.00372843,-0.00239683,-0.0191748,4000,0,-2.5107,-3.42172,-8.92065,4000
1694785229286524,0.00399475,-0.00532634,-0.0167779,4000,0,-2.45683,-3.472,-8.95417,4000
1694785230284178,0.0031958,-0.00452738,-0.0191748,4000,0,-2.40056,-3.51509,-8.96135,4000
1694785231273895,-0.00186422,-0.00452737,-0.0167779,4000,0,-2.32155,-3.57495,-9.03438,4000
1694785232279650,-0.00159792,0.00852213,-0.0276969,4000,0,-2.25931,-3.64558,-8.93741,4000
1694785233285567,0.000798928,0.00133157,-0.0247674,4000,0,-2.20783,-3.69226,-9.01163,4000
1694785234279473,-0.000798945,-0.00106526,-0.0221042,4000,0,-2.10488,-3.74015,-9.00924,4000
1694785235265785,-0.000266311,0.00213053,-0.0250337,4000,0,-2.04742,-3.75212,-8.95417,4000
1694785236287850,-3.73535e-09,-0.00239686,-0.0186421,4000,0,-1.92531,-3.81796,-8.89073,4000
1694785237293807,-2.08517e-08,-0.00426106,-0.0226369,4000,0,-1.78286,-3.8431,-8.93741,4000
1694785238195773,-0.0015979,-0.00612526,-0.0221042,4000,0,-1.74455,-3.85986,-8.98051,4000
1694785239191559,0.000798947,-0.00266315,-0.0255664,4000,0,-1.65477,-3.90894,-8.93741,4000
1694785240191265,-0.00159791,-0.00319579,-0.0231695,4000,0,-1.53626,-3.91851,-8.95178,4000
1694785241199028,0.00745686,-0.00506002,-0.0290285,4000,0,-1.42852,-3.9664,-8.98649,4000
1694785242202670,-0.00106528,0.00692423,-0.0229032,4000,0,-1.38782,-4.00231,-8.9434,4000
1694785243198603,0.00612528,-0.00239686,-0.0247674,4000,0,-1.26691,-4.03942,-8.95058,4000
1694785244210459,-0.000532623,-0.00346211,-0.0282295,4000,0,-1.15558,-4.0897,-8.96614,4000
1694785245202477,-0.0047937,-0.00319581,-0.0271642,4000,0,-1.01193,-4.08012,-9.01044,4000
1694785246210409,-0.000532655,-0.00585896,-0.0284958,4000,0,-0.898202,-4.10047,-8.92424,4000
1694785247210412,0.000266309,-0.0034621,-0.0266316,4000,0,-0.779689,-4.15913,-8.99248,4000
1694785248218407,0.000532635,0.00053263,-0.0279632,4000,0,-0.662373,-4.15793,-8.96495,4000
1694785249214419,-0.00186423,-0.00213053,-0.0274306,4000,0,-0.547451,-4.19145,-8.96255,4000
1694785250210639,4.04268e-09,-0.00292948,-0.0242348,4000,0,-0.437318,-4.19624,-8.96016,4000
1694785251210899,0.00372842,-0.00346213,-0.0279632,4000,0,-0.310425,-4.19385,-8.98171,4000
1694785252215144,-0.00266316,-0.000532626,-0.0298274,4000,0,-0.20508,-4.1723,-8.94819,4000
1694785253223303,-0.00266314,0.000798961,-0.0319579,4000,0,-0.036289,-4.23455,-8.95298,4000
1694785254223542,0.000532619,-0.0117179,-0.0242348,4000,0,0.0654646,-4.2154,-8.93023,4000
1694785255203542,0.000798939,-0.00452736,-0.0292948,4000,0,0.14567,-4.2154,-8.93023,4000
1694785256216026,-0.00026632,-0.0069242,-0.0253,4000,0,0.270169,-4.17829,-8.95058,4000
1694785257192432,0.00239686,-0.00479367,-0.0316916,4000,0,0.380302,-4.1723,-8.92185,4000
1694785258221214,0.00159789,-0.00239687,-0.0330232,4000,0,0.503604,-4.12801,-8.95178,4000
1694785259217675,0.00213049,-0.00532632,-0.031159,4000,0,0.616131,-4.12442,-8.93143,4000
1694785260226276,-0.00186423,0.000266327,-0.0276969,4000,0,0.741827,-4.10646,-8.93981,4000
1694785261030765,0.00426106,-0.00426107,-0.0237021,4000,0,0.890267,-4.10766,-8.9446,4000
1694785262109651,0.00239684,-0.0034621,-0.0250337,4000,0,0.962093,-4.06336,-8.9434,4000
1694785263095972,0.00692422,-0.00292948,-0.0268979,4000,0,1.12729,-4.05139,-8.96135,4000
1694785264110262,0.00133158,0.00159788,-0.0276969,4000,0,1.21827,-4.00231,-8.95298,4000
1694785265108553,0.00319582,-0.00585895,-0.0245011,4000,0,1.32242,-3.98555,-8.95417,4000
1694785266150598,0.00266318,-0.00159791,-0.0268979,4000,0,1.43974,-3.8814,-8.96614,4000
1694785267152430,0.000266313,-0.00452737,-0.026099,4000,0,1.50677,-3.82035,-8.97572,4000
1694785268154416,-0.00213052,-0.00639159,-0.0218379,4000,0,1.63247,-3.78803,-8.98051,4000
1694785269132512,-0.00532632,-0.00479369,-0.0253,4000,0,1.71148,-3.7581,-8.96375,4000
1694785270063382,0.00452738,-0.00213053,-0.0207727,4000,0,1.80006,-3.73775,-8.97333,4000
1694785271023051,-0.00905474,0.000532636,-0.0253,4000,0,1.88027,-3.72219,-8.99607,4000
1694785272034519,-0.00346212,-0.00266314,-0.0263653,4000,0,2.02512,-3.63241,-8.92784,4000
1694785273022032,-0.000798928,0.0047937,-0.0218379,4000,0,2.12807,-3.58572,-8.95896,4000
1694785274037638,-0.00106528,-0.00772318,-0.0234358,4000,0,2.15081,-3.5522,-8.94938,4000
1694785275037096,-0.00612529,-0.00665789,-0.0229032,4000,0,2.2394,-3.45524,-8.96016,4000
1694785276056620,-6.09949e-09,-0.0029295,-0.0186421,4000,0,2.29925,-3.49474,-8.9817,4000
1694785277059839,-0.0063916,-0.000266317,-0.0205063,4000,0,2.3651,-3.37264,-8.97093,4000
1694785278055401,0.00266316,-0.00292947,-0.0186421,4000,0,2.43213,-3.31757,-8.94938,4000
1694785279066819,-0.00798949,-0.000266313,-0.0218379,4000,0,2.486,-3.27807,-8.9434,4000
1694785280058047,-1.07096e-08,-0.0098537,-0.0162453,4000,0,2.56022,-3.21582,-8.99607,4000
1694785281065510,-0.0002663,-0.00479368,-0.0213053,4000,0,2.60571,-3.15836,-9.00086,4000
1694785282064992,-0.00452739,-0.000532634,-0.0197074,4000,0,2.67155,-3.10927,-8.9841,4000
1694785283064269,-0.141947,-0.114782,0.0314254,4000,0,2.58297,-3.03027,-9.43541,4000
1694785284087516,-0.0455401,-0.109722,0.0583232,4000,0,2.10892,-2.46643,-9.64011,4000
1694785285102753,-0.0471379,-0.0306264,0.00292949,4000,0,1.4565,-1.90858,-9.8915,4000
1694785286097933,0.334226,0.270045,-0.00958733,4000,0,0.940545,-1.3651,-9.82207,4000
1694785287085147,0.335026,0.202134,-0.011717,4000,0,0.877099,-1.3651,-9.9741,4000
1694785287996333,0.0828243,0.00292944,-0.0601875,4000,0,1.00399,-1.95527,-10.095,4000
1694785289004211,-0.0492684,0.123038,-0.0545948,4000,0,1.48523,-2.88183,-9.71553,4000
1694785290012084,-0.223972,-0.184557,0.057258,4000,0,1.97843,-3.43249,-9.07987,4000
1694785291019849,0.0133158,-0.000266306,-0.0199737,4000,0,1.98681,-3.41334,-9.07388,4000
1694785292031455,0.0015979,0.000532629,-0.0181095,4000,0,2.05265,-3.44566,-9.026,4000
1694785293038991,0.00213052,-0.000532615,-0.0173106,4000,0,2.14722,-3.36067,-8.96734,4000
1694785294030660,-0.00426104,-0.00932106,-0.0125169,4000,0,2.24778,-3.3894,-9.00804,4000
1694785295050094,-0.0015979,-0.000532623,-0.015979,4000,0,2.29686,-3.34391,-8.96973,4000
1694785296049471,0.000798945,0.00106527,-0.0143811,4000,0,2.31362,-3.36426,-8.99487,4000
1694785297036915,-0.00106527,-0.00798949,-0.0135821,4000,0,2.45248,-3.35468,-9.02241,4000
1694785298052294,0.00585896,0.00692424,-0.0162453,4000,0,2.46805,-3.29004,-9.02241,4000
1694785299063529,0.0031958,-0.00239685,-0.00985369,4000,0,2.56262,-3.25173,-8.97093,4000
1694785300090628,0.000266302,-0.0111853,-0.0133158,4000,0,2.58057,-3.23258,-8.99128,4000
1694785301077793,0.00452737,0.0015979,-0.015979,4000,0,2.66557,-3.18948,-8.96495,4000
1694785302080940,-0.00292948,-0.0111853,-0.0127832,4000,0,2.6955,-3.15836,-8.99487,4000
1694785303088034,0.000798959,0.00292948,-0.0114516,4000,0,2.75655,-3.10688,-8.98051,4000
1694785304111006,0.00186421,-0.00825581,-0.0149137,4000,0,2.81999,-3.04822,-8.97812,4000
1694785305022450,0.00319579,-0.000798938,-0.00852212,4000,0,2.82718,-3.06977,-8.99487,4000
1694785306049647,-0.00292947,-0.000798955,-0.0127832,4000,0,2.87745,-2.98478,-8.92065,4000
1694785307052769,-0.00559263,0.000532624,-0.0154463,4000,0,2.89421,-2.98837,-8.92424,4000
1694785308028077,0.00106527,-0.0111853,-0.0103863,4000,0,2.9828,-2.94048,-8.99248,4000
1694785309023345,0.0015979,-0.00798949,-0.0103863,4000,0,3.00076,-2.83873,-8.95657,4000
1694785310050458,0.00452738,0.00346211,-0.0125169,4000,0,2.99597,-2.8507,-8.92305,4000
1694785311053495,0.000266319,-0.00825581,-0.0117179,4000,0,3.06899,-2.78486,-8.97333,4000
1694785312045495,-0.00506,0.00186422,-0.00958738,4000,0,3.03308,-2.79803,-8.94579,4000
1694785313060473,-0.00346211,-0.00133157,-0.0098537,4000,0,3.06899,-2.73099,-8.93143,4000
1694785314075375,-0.00479369,-0.00798948,-0.00932107,4000,0,3.09533,-2.7274,-8.90629,4000
1694785315078183,-0.00878843,0.00106527,-0.0098537,4000,0,3.13124,-2.67832,-8.91467,4000
1694785316088938,0.00772317,-0.0103863,-0.0106526,4000,0,3.17194,-2.62086,-8.93741,4000
1694785317123609,0.00186421,-0.00559265,-0.00532632,4000,0,3.15638,-2.58854,-8.92784,4000
1694785318098099,-0.00239684,0.00239684,-0.00719054,4000,0,3.16835,-2.59452,-8.90509,4000
1694785319100687,-0.000266312,0.00559264,-0.00958738,4000,0,3.22581,-2.57776,-8.93981,4000
1694785320099278,-0.00266316,-0.00159789,-0.00958738,4000,0,3.24496,-2.50474,-8.89911,4000
1694785321113816,-0.00372843,0.00106527,-0.00559264,4000,0,3.27968,-2.51312,-8.90749,4000
1694785322124286,0.00292948,-0.010919,-0.0063916,4000,0,3.30243,-2.45446,-8.92544,4000
1694785323118752,0.00239684,-0.00745686,-0.00772317,4000,0,3.33235,-2.45446,-8.93143,4000
1694785324141141,0.00133159,-0.00399475,-0.0111853,4000,0,3.33355,-2.40538,-8.92185,4000
1694785325127490,0.0015979,-0.00532632,-0.00639159,4000,0,3.37305,-2.42453,-8.95776,4000
1694785326145803,-0.00346211,0.00106526,-0.00878844,4000,0,3.38383,-2.36827,-8.96734,4000
1694785327116070,-0.0066579,-0.000266318,-0.00932106,4000,0,3.42453,-2.33355,-8.94579,4000
1694785328130406,0.0018642,-0.00798948,-0.00585896,4000,0,3.42692,-2.32757,-8.96495,4000
1694785329124680,0.00532632,-0.00213054,-0.00479369,4000,0,3.46164,-2.27609,-8.94938,4000
1694785330134990,-0.00239685,-0.00319579,-0.00692422,4000,0,3.47002,-2.25335,-8.94819,4000
1694785331137281,0.00266316,-0.00372844,-0.0066579,4000,0,3.47002,-2.20786,-9.01163,4000
1694785332035504,-0.00133158,-0.00639159,-0.00719054,4000,0,3.4796,-2.16237,-8.97812,4000
1694785333034175,0.0034621,-0.00692422,-0.00479369,4000,0,3.50234,-2.16955,-8.93741,4000
1694785334028822,0.00426106,-0.0018642,-0.00612527,4000,0,3.55023,-2.13723,-8.92424,4000
1694785335035423,-0.0066579,0.00372843,-0.00878844,4000,0,3.53945,-2.13364,-8.93023,4000
1694785335974029,-3.16795e-09,0.000798949,-0.00772317,4000,0,3.55741,-2.10969,-8.93861,4000
1694785336948878,-0.00506001,0.00319579,-0.00692421,4000,0,3.58135,-2.0678,-8.97213,4000
1694785337967739,0.00213052,-0.00745685,-0.00612528,4000,0,3.62804,-2.01034,-8.93143,4000
1694785338902539,-0.00772316,0.00239685,-0.00426106,4000,0,3.61607,-2.02709,-8.97452,4000
1694785339881601,-0.00932106,-0.000266317,-0.00479369,4000,0,3.62205,-2.00196,-8.92185,4000
1694785340876664,0.00106527,-0.00719054,-0.00213053,4000,0,3.65677,-1.96604,-8.93502,4000
1694785341895733,-0.00239684,0.0015979,-0.00612527,4000,0,3.69867,-1.9433,-8.92305,4000
1694785342890767,-0.00159789,0.00106527,-0.00532632,4000,0,3.6843,-1.92654,-8.94938,4000
1694785343794126,-0.00452738,-0.00585896,-0.0066579,4000,0,3.72141,-1.89661,-8.96614,4000
1694785344805423,0.00053263,-0.00506001,-0.00612527,4000,0,3.72141,-1.94689,-8.97931,4000
1694785345800718,-0.00426106,-0.00266316,-0.00266316,4000,0,3.70824,-1.89781,-8.90629,4000
1694785346796042,-0.00159789,0.00186421,-0.00745685,4000,0,3.75254,-1.90619,-8.92065,4000
1694785347827323,0.00479369,-0.00426106,-0.00133158,4000,0,3.75134,-1.82718,-8.96974,4000
1694785348818595,0.000266311,-0.00239684,-0.00346211,4000,0,3.74416,-1.8595,-8.95058,4000
1694785349833869,-0.00133159,-0.00532632,-0.00319579,4000,0,3.75254,-1.83436,-8.96255,4000
1694785350829114,-0.00639158,0.00452738,-0.0031958,4000,0,3.73578,-1.81521,-8.93502,4000
1694785351840346,-0.00346211,-0.00479369,-0.00186421,4000,0,3.78007,-1.79486,-8.97572,4000
1694785352863583,9.45657e-10,2.49589e-09,-0.00213053,4000,0,3.78605,-1.76493,-8.92305,4000
1694785353854821,-0.00186422,-0.00346211,-0.00399474,4000,0,3.74535,-1.76613,-8.95537,4000
1694785354890007,-0.00186421,-0.00266316,-0.00532632,4000,0,3.79324,-1.74219,-8.89192,4000
1694785355881233,0.00692422,-0.00266316,-0.00559264,4000,0,3.82077,-1.6967,-8.9829,4000
1694785356888440,-0.00745685,-0.00266316,-0.00239684,4000,0,3.78965,-1.68353,-8.96495,4000
1694785357907606,-0.00106527,-0.00319579,-0.00266316,4000,0,3.8076,-1.6943,-8.96016,4000
1694785358898813,-0.00053263,0.00213053,-0.00186421,4000,0,3.81119,-1.67515,-8.98769,4000
1694785359917963,0.00106526,-0.00506001,-0.0015979,4000,0,3.84112,-1.66437,-8.91946,4000
1694785360905166,-0.00399474,-0.000266317,-0.00186421,4000,0,3.87584,-1.67036,-8.9841,4000
1694785361832637,0.000532634,-0.00612527,-0.00452737,4000,0,3.84591,-1.64642,-8.97093,4000
1694785362840095,-0.000266312,-0.00426106,-0.00106527,4000,0,3.86027,-1.65001,-8.92305,4000
1694785363847549,0.00213053,8.59185e-10,-0.00452737,4000,0,3.90098,-1.67275,-8.97093,4000
1694785364855009,-0.00292948,-0.0066579,-0.00319579,4000,0,3.85549,-1.6524,-8.90629,4000
1694785365866453,-0.11931,-0.360326,0.0223707,4000,0,3.87703,-1.6105,-8.80932,4000
1694785366893837,-0.0450074,-0.13156,0.00932108,4000,0,3.32158,-1.51713,-9.47491,4000
1694785367905211,-0.0284959,-0.0692422,0.00186422,4000,0,2.59494,-1.21785,-9.75264,4000
1694785368797211,-0.0237021,-0.042078,0.00266312,4000,0,1.89942,-0.935339,-9.86636,4000
1694785369804890,-0.00825581,-0.0162453,0.00106526,4000,0,1.28531,-0.632472,-9.9322,4000
1694785370820583,-0.00612527,0.00213053,0.000266313,4000,0,0.818441,-0.379884,-9.87833,4000
1694785371820234,0.130495,-0.0735033,0.0165112,4000,0,0.337207,-0.596559,-10.0459,4000
1694785372831921,0.0197074,-0.0679106,-0.0127832,4000,0,0.0451139,-0.795278,-9.91066,4000
1694785373843580,0.0189084,0.0106526,0.0103863,4000,0,0.0319458,-1.2813,-9.95854,4000
1694785374839265,0.0748348,-0.0191747,-0.00239688,4000,0,0.0163835,-2.1492,-9.95734,4000
1694785375858947,0.0647148,-0.0119842,-0.00239684,4000,0,-0.0255151,-2.92612,-9.67962,4000
1694785376866608,-0.233027,0.0676444,-0.0287623,4000,0,-0.0817788,-3.68149,-9.15528,4000
1694785377878253,0.0229032,0.00905476,-0.00585897,4000,0,0.0558878,-3.91732,-9.10501,4000
1694785378889900,0.0082558,0.00559264,-0.00772317,4000,0,0.0630704,-3.94844,-9.07508,4000
1694785379901500,0.0031958,-0.000532629,-0.0103863,4000,0,0.0858153,-3.99633,-9.04276,4000
1694785380897095,-0.000532639,-0.00292948,-0.0066579,4000,0,0.151656,-4.06696,-9.01044,4000
1694785381916714,-3.78263e-10,-0.0015979,-0.00585896,4000,0,0.197146,-4.11604,-9.00445,4000
1694785382912344,-0.00452738,-0.00452737,-0.00585895,4000,0,0.217496,-4.12322,-8.96016,4000
1694785383923953,0.00133158,-0.0031958,-0.00639159,4000,0,0.296505,-4.15554,-8.9853,4000
1694785384919953,-0.00346211,-0.000266312,-0.00932106,4000,0,0.318053,-4.1723,-8.99727,4000
1694785385915953,0.00186422,-0.00559264,-0.00932106,4000,0,0.380302,-4.18188,-8.95298,4000
1694785386919953,-0.00159791,-0.00985369,-0.00692423,4000,0,0.409033,-4.20702,-8.9422,4000
1694785387919953,-0.00106526,0.00213052,-0.0111853,4000,0,0.49283,-4.23096,-8.93861,4000
1694785388915953,0.000798952,-0.00346211,-0.00692422,4000,0,0.485647,-4.18667,-8.95178,4000
508372000,-0.00452737,-0.000798951,-0.0135821,4000,0,0.539517,-4.23335,-8.9422,4000
1694785391860577,-0.00133159,-0.0157127,-0.00426106,4000,0,0.573035,-4.23096,-8.89671,4000
1694785392860531,3.54621e-10,0.00133158,-0.0133158,4000,0,0.607751,-4.2142,-8.91108,4000
1694785393864723,-0.00399474,-0.0114516,-0.0117179,4000,0,0.674789,-4.18786,-8.89192,4000
1694785394861467,0.000798947,-0.0015979,-0.00932106,4000,0,0.719082,-4.23934,-8.94938,4000
1694785395858147,9.26744e-09,-0.0149137,-0.00905476,4000,0,0.747812,-4.21659,-8.89312,4000
1694785396859368,0.00612528,-0.00532632,-0.00958738,4000,0,0.780134,-4.17948,-8.90988,4000
1694785397860936,0.00106526,-0.00372843,-0.0135821,4000,0,0.780134,-4.18307,-8.92544,4000
1694785398874676,-0.00133158,-0.00612527,-0.00612527,4000,0,0.855551,-4.20103,-8.91826,4000
1694785399871692,-0.000266324,0.00426106,-0.0114516,4000,0,0.908224,-4.18307,-8.862,4000
1694785400849326,0.000798947,-0.00825581,-0.00692421,4000,0,1.01237,-4.18188,-8.9003,4000
1694785401863832,0.000532635,-0.00798948,-0.00772317,4000,0,1.00758,-4.18427,-8.90988,4000
1694785402846721,0.00825581,-0.00985369,-0.00559263,4000,0,1.03392,-4.17948,-8.95058,4000
1694785403842898,0.00159789,-0.00106527,-0.00772317,4000,0,1.09138,-4.17948,-8.90629,4000
1694785404831594,-0.00372843,-0.00506001,-0.00745685,4000,0,1.12729,-4.19265,-8.95776,4000
1694785405828669,0.000266319,-0.00585895,-0.00798949,4000,0,1.17637,-4.15554,-8.95297,4000
1694785406834583,-9.92941e-10,-0.00159789,-0.00719054,4000,0,1.2051,-4.1316,-8.97812,4000
1694785407848858,0.000532633,-0.00292947,-0.0119842,4000,0,1.23982,-4.1316,-8.99487,4000
1694785408846585,0.00426106,-0.00639158,-0.0106526,4000,0,1.29608,-4.12801,-8.96734,4000
1694785409829189,-0.0047937,-0.00133157,-0.0082558,4000,0,1.26257,-4.09329,-8.96255,4000
1694785410840085,0.00692422,-0.00612527,-0.00639158,4000,0,1.31883,-4.07773,-8.96375,4000
1694785411831414,0.0015979,-0.00479369,-0.00798949,4000,0,1.37749,-4.06217,-8.95417,4000
1694785412839566,-0.00585896,1.05797e-08,-0.00745685,4000,0,1.43016,-4.0059,-8.9446,4000
1694785413848120,-0.00159789,-0.01012,-0.00905475,4000,0,1.4565,-4.01428,-8.92065,4000
1694785414852601,-0.000798951,-0.00585895,-0.00905475,4000,0,1.51875,-4.03224,-8.96734,4000
1694785415857567,-0.00186422,-0.00612528,-0.00719053,4000,0,1.51875,-3.97478,-8.93143,4000
1694785416746998,1.41849e-09,-0.00958738,-0.00399474,4000,0,1.5367,-3.96879,-8.92664,4000
1694785417757748,-0.00745685,0.00346212,-0.00719053,4000,0,1.60733,-3.95203,-8.93502,4000
1694785418768655,0.0066579,-0.00106528,-0.0117179,4000,0,1.64683,-3.98795,-8.92065,4000
1694785419676344,0.00878844,-0.00878843,-0.00133157,4000,0,1.69232,-3.95084,-8.89551,4000
1694785420688620,-0.00106527,-0.0106526,-0.00692422,4000,0,1.70789,-3.91851,-8.92544,4000
1694785421708674,-0.0015979,0.00266316,-0.0098537,4000,0,1.72824,-3.9245,-8.92903,4000
1694785422720998,-0.00559264,-0.00053263,-0.0117179,4000,0,1.75697,-3.90654,-8.87756,4000
1694785423730485,0.000798947,-0.00186421,-0.00745685,4000,0,1.82401,-3.91133,-8.89432,4000
1694785424747318,0.00399474,-0.00932107,-0.00798948,4000,0,1.86351,-3.885,-8.92305,4000
1694785425756242,-0.00479369,0.0111853,-0.0122505,4000,0,1.85034,-3.82993,-8.92544,4000
1694785426768878,-0.397876,-0.147806,0.0378177,4000,0,1.79767,-3.79641,-9.13015,4000
1694785427793990,-0.0836233,-0.0551275,0.00239695,4000,0,1.48044,-3.17871,-9.57188,4000
1694785428806766,-0.0540622,-0.0245011,0.00133155,4000,0,1.13448,-2.45207,-9.77658,4000
1694785429830464,-0.0346211,-0.0258327,1.72093e-08,4000,0,0.81485,-1.77211,-9.89869,4000
1694785430846831,0.394947,0.108657,-0.0018641,4000,0,0.547896,-1.25736,-9.86158,4000
1694785431874391,-0.0167783,-0.128098,0.137952,4000,0,-0.151211,-1.26334,-9.82686,4000
1694785432885980,0.081759,-0.0798949,0.0189083,4000,0,-0.688709,-1.62846,-10.2051,4000
1694785433908582,0.103064,0.051399,-0.11132,4000,0,-1.27768,-2.54065,-9.74905,4000
1694785434934270,-0.151001,-0.00665789,-0.0111853,4000,0,-1.17114,-3.4277,-9.1924,4000
1694785435971115,0.0777643,0.0141148,-0.0183758,4000,0,-1.02749,-3.88978,-9.07269,4000
1694785436979401,-0.0013316,-0.0122505,-0.0098537,4000,0,-0.926932,-3.87302,-8.97333,4000
1694785437995174,0.0063916,0.00399475,-0.0183758,4000,0,-0.913764,-3.96999,-9.00565,4000
1694785438964313,-0.000532646,-0.00958737,-0.0143811,4000,0,-0.832361,-4.04301,-8.88953,4000
1694785439969863,0.00399474,-0.00372843,-0.0111853,4000,0,-0.760535,-4.04421,-8.93382,4000
1694785440971587,-0.00319579,-0.00133158,-0.0173105,4000,0,-0.756944,-4.10407,-8.83686,4000
1694785442000378,0.00266317,-0.00665791,-0.0117179,4000,0,-0.656387,-4.12322,-8.90389,4000
1694785442993803,-0.0015979,-0.00106527,-0.0162453,4000,0,-0.585758,-4.18547,-8.83327,4000
1694785443995433,0.0034621,-0.00346211,-0.0127832,4000,0,-0.537874,-4.19983,-8.86559,4000
1694785445012703,-0.00452737,-0.00932107,-0.0173105,4000,0,-0.442106,-4.23335,-8.80693,4000
1694785446025777,-0.00159789,0.00213054,-0.0154463,4000,0,-0.393025,-4.24293,-8.86319,4000
1694785447065661,0.00133158,-0.0031958,-0.0167779,4000,0,-0.310425,-4.25131,-8.91706,4000
1694785448077126,0.000532632,0.0034621,-0.0157127,4000,0,-0.285286,-4.25729,-8.83925,4000
1694785449073176,5.86308e-09,-0.0082558,-0.0170442,4000,0,-0.183532,-4.23335,-8.83327,4000
1694785450088473,-0.000532636,0.00612528,-0.0167779,4000,0,-0.0865672,-4.18427,-8.862,4000
1694785451103388,5.67394e-09,0.000532644,-0.0157127,4000,0,-0.0374861,-4.26567,-8.86678,4000
1694785452098612,-2.36415e-09,-0.00798948,-0.0133158,4000,0,0.0546907,-4.22497,-8.85122,4000
1694785453121048,0.00239685,-0.00426106,-0.0119842,4000,0,0.0774356,-4.27046,-8.85481,4000
1694785454093048,-0.00266316,0.00772318,-0.02024,4000,0,0.157641,-4.27884,-8.89192,4000
1694785455112150,-0.00133158,0.000266322,-0.0175769,4000,0,0.242636,-4.20702,-8.862,4000
1694785456172577,0.00186421,-0.00106527,-0.0141148,4000,0,0.279746,-4.25849,-8.88594,4000
1694785457166917,-0.00213054,-0.00825579,-0.0141148,4000,0,0.331221,-4.23575,-8.88235,4000
1694785458184691,-0.00292946,0.0047937,-0.0157127,4000,0,0.416215,-4.2118,-8.89911,4000
1694785459172691,-0.00452736,-0.00106526,-0.0183758,4000,0,0.514377,-4.22378,-8.84524,4000
1694785460194332,-0.00213053,-0.0114516,-0.0141148,4000,0,0.610146,-4.19265,-8.862,4000
1694785461211373,0.00426106,0.00426105,-0.0141148,4000,0,0.656832,-4.20223,-8.85721,4000
1694785462215397,-0.000266306,-0.00159792,-0.0205063,4000,0,0.734644,-4.20462,-8.85242,4000
1694785463211515,-0.00266316,-0.0031958,-0.0149137,4000,0,0.850763,-4.16512,-8.85601,4000
1694785464211692,-0.00159791,0.000798945,-0.015979,4000,0,0.913012,-4.14955,-8.83925,4000
1694785465184037,0.00159791,-0.0143811,-0.0111853,4000,0,0.958502,-4.16033,-8.87037,4000
1694785466157968,-0.00292948,0.010919,-0.0165116,4000,0,1.02315,-4.12561,-8.87636,4000
1694785467153931,-0.00239684,-0.00506,-0.0149137,4000,0,1.12131,-4.10047,-8.88474,4000
1694785468077255,-0.00399474,0.00665791,-0.0175769,4000,0,1.14645,-4.06217,-8.88713,4000
1694785468937092,0.00239684,0.00346211,-0.0175769,4000,0,1.19433,-4.0502,-8.88354,4000
1694785469839392,0.00106527,-0.00186421,-0.0135821,4000,0,1.27573,-4.08731,-8.90509,4000
1694785470809342,-0.00372844,-0.00958738,-0.0141148,4000,0,1.32841,-4.0466,-8.94579,4000
1694785471813349,0.00559264,-0.00878844,-0.01518,4000,0,1.43375,-4.03463,-8.90629,4000
1694785472867809,6.92694e-09,0.00426106,-0.0173105,4000,0,1.46248,-4.00471,-8.88713,4000
1694785473814319,-0.00186421,-0.00506,-0.0130495,4000,0,1.4948,-3.95922,-8.88235,4000
1694785474812823,-0.00239685,0.00239684,-0.0143811,4000,0,1.56783,-3.98316,-8.85601,4000
1694785475724402,-0.000798941,-0.00958739,-0.0165116,4000,0,1.63486,-3.96041,-8.90509,4000
1694785476745392,0.00399475,-0.00878843,-0.0149137,4000,0,1.66838,-3.90654,-8.83446,4000
1694785477409392,-0.00266315,-0.00346212,-0.0138484,4000,0,1.72943,-3.91133,-8.84883,4000
1694785478493092,-0.0031958,-0.00399474,-0.0143811,4000,0,1.83717,-3.90176,-8.89192,4000
1694785479550075,0.00452737,-0.00506,-0.0117179,4000,0,1.87309,-3.85028,-8.82967,4000
1694785480362956,-0.01012,0.0125169,-0.0167779,4000,0,1.91139,-3.81437,-8.84524,4000
1694785481433985,-0.000798946,-0.00133158,-0.00905475,4000,0,1.96407,-3.80599,-8.81411,4000
1694785482475699,0.0111853,-0.0205063,-0.00905476,4000,0,2.02632,-3.75691,-8.86559,4000
1694785483498472,-0.00106527,-0.00213053,-0.0122505,4000,0,2.0347,-3.73057,-8.78538,4000
1694785484529575,0.000798951,-0.00186422,-0.0154463,4000,0,2.07181,-3.70663,-8.86918,4000
1694785485588733,0.00186422,-0.010919,-0.0122505,4000,0,2.16638,-3.66952,-8.86798,4000
1694785486658541,-0.00186422,0.00106527,-0.0119842,4000,0,2.1975,-3.64438,-8.85362,4000
1694785487694389,-0.00292948,-0.0031958,-0.0135821,4000,0,2.25616,-3.62642,-8.87636,4000
1694785488754465,-0.00852213,0.00852211,-0.0122505,4000,0,2.29327,-3.60727,-8.85601,4000
1694785489702398,0.00372842,-0.0103863,-0.00346211,4000,0,2.31721,-3.59889,-8.8596,4000
1694785490768734,-0.314786,-0.213586,0.0484687,4000,0,2.27531,-3.57614,-9.22951,4000
1694785491798673,-0.0860201,-0.0503337,-0.000266444,4000,0,1.85393,-2.95964,-9.53357,4000
1694785492816429,-0.0551275,-0.0346211,0.000532678,4000,0,1.43734,-2.27729,-9.69997,4000
1694785493881213,-0.0391485,-0.01012,-0.00159788,4000,0,1.06145,-1.64761,-9.84242,4000
1694785494882567,-0.0205063,0.00213054,-0.00585896,4000,0,0.801682,-1.09575,-9.94178,4000
1694785495858567,0.118244,0.0689759,-0.000532815,4000,0,0.546699,-0.676765,-9.89869,4000
1694785496907840,-0.20027,0.277768,-1.28718e-06,4000,0,-0.0147411,-0.698313,-9.8915,4000
1694785497951949,0.294546,-0.313454,0.0356862,4000,0,-0.177547,-0.834782,-10.0435,4000
1694785499022866,0.0298274,-0.0372843,0.00719051,4000,0,-0.740184,-1.55185,-10.0124,4000
1694785500075656,0.057258,-0.0545948,0.0133158,4000,0,-1.24536,-2.17673,-9.71792,4000
1694785501067249,0.0556601,-0.0535295,0.0183758,4000,0,-1.69906,-2.72141,-9.51082,4000
1694785502076637,-0.302269,-0.0229034,-0.0529963,4000,0,-1.90496,-3.30201,-9.17085,4000
1694785503102341,0.0173106,-0.00932106,-0.0103863,4000,0,-1.81638,-3.387,-9.07269,4000
1694785503991432,0.00452738,-0.00479369,-0.00852212,4000,0,-1.79004,-3.46242,-9.05114,4000
1694785505029565,0.000532621,0.00239685,-0.00798949,4000,0,-1.77209,-3.48157,-8.94938,4000
1694785506090365,0.00186422,-0.00665792,-0.0111853,4000,0,-1.73019,-3.54622,-8.89312,4000
1694785507134117,-0.00639159,-0.0117179,-0.00479369,4000,0,-1.70744,-3.61804,-8.97213,4000
1694785508161959,0.00399475,-0.00559264,-0.0122505,4000,0,-1.7266,-3.69107,-8.9829,4000
1694785509111505,0.0031958,0.000532636,-0.00905475,4000,0,-1.71702,-3.68149,-8.96974,4000
1694785510165012,0.00772317,0.00399475,-0.0146474,4000,0,-1.62724,-3.75212,-8.93143,4000
1694785511212465,-0.00213052,-0.0127832,-0.0114516,4000,0,-1.60329,-3.81796,-8.90749,4000
1694785512257677,-0.00612527,-0.00506,-0.0122505,4000,0,-1.5195,-3.80599,-8.91227,4000
1694785513278290,0.00133159,-0.00292949,-0.0146474,4000,0,-1.4764,-3.86345,-8.95537,4000
1694785514329650,-0.00692422,-0.00106526,-0.0141148,4000,0,-1.45844,-3.8826,-8.93382,4000
1694785515402902,-0.00213053,-0.00506,-0.0141148,4000,0,-1.38063,-3.88859,-8.93382,4000
1694785516445565,-0.0015979,-0.00932106,-0.0117179,4000,0,-1.33754,-3.8826,-8.91467,4000
1694785517491295,0.00426106,0.00745686,-0.0178432,4000,0,-1.28606,-3.93288,-8.89192,4000
1694785518503689,0.00639158,0.000532622,-0.0149137,4000,0,-1.22621,-3.96041,-8.89671,4000
1694785519582044,0.00239684,-0.00399473,-0.0149137,4000,0,-1.16276,-3.99273,-8.90868,4000
1694785520606734,3.61714e-09,-0.00159789,-0.0167779,4000,0,-1.05861,-4.01428,-8.91467,4000
1694785521637777,-0.00186422,-0.00905474,-0.0138484,4000,0,-1.00355,-4.03703,-8.93502,4000
1694785522624895,0.0034621,0.000532631,-0.0143811,4000,0,-0.971225,-4.05738,-8.88594,4000
1694785523567152,-0.00106527,-0.0018642,-0.0119842,4000,0,-0.928129,-4.0478,-8.92784,4000
1694785524539152,0.000532628,0.00506001,-0.0181095,4000,0,-0.834755,-4.07174,-8.92424,4000
1694785525564380,0.00506,0.00692422,-0.0175769,4000,0,-0.808419,-4.0885,-8.92544,4000
1694785526592331,-4.681e-09,-0.00053264,-0.0154463,4000,0,-0.706666,-4.10047,-8.91946,4000
1694785527683191,0.00452737,0.00266315,-0.0183758,4000,0,-0.598926,-4.09329,-8.9027,4000
1694785528722377,0.000532634,0.000266316,-0.0146474,4000,0,-0.584561,-4.12202,-8.90629,4000
1694785529747640,0.000532629,-0.00213053,-0.0223706,4000,0,-0.499567,-4.14596,-8.90988,4000
1694785530767655,0.00372842,-0.0066579,-0.0175769,4000,0,-0.433726,-4.14477,-8.92664,4000
1694785531806349,0.00399474,-0.00133158,-0.0135821,4000,0,-0.3619,-4.13639,-8.90749,4000
1694785532819009,0.000266315,0.0015979,-0.0173105,4000,0,-0.285286,-4.1711,-8.9015,4000
1694785533834684,-0.00292947,-0.00532632,-0.01518,4000,0,-0.223037,-4.17829,-8.95417,4000
1694785534861424,-0.000532637,-0.00239685,-0.0141148,4000,0,-0.171561,-4.17469,-8.88594,4000
1694785535795238,0.00292948,-0.00133159,-0.0157126,4000,0,-0.0865672,-4.21061,-8.95297,4000
1694785536818656,-0.00133159,-0.00133158,-0.0162453,4000,0,-0.012347,-4.19505,-8.91347,4000
1694785537849603,-0.00159791,-0.00479369,-0.0138484,4000,0,0.0642675,-4.19744,-8.95896,4000
1694785538847145,-0.00426107,-0.0066579,-0.0119842,4000,0,0.0834211,-4.17469,-8.96974,4000
1694785539839440,-0.000798949,0.00106527,-0.0135821,4000,0,0.15405,-4.18547,-8.93143,4000
1694785540860050,-0.00559264,0.00133159,-0.015979,4000,0,0.24503,-4.22378,-8.94579,4000
1694785541891352,0.000532627,-0.00186421,-0.015979,4000,0,0.320447,-4.18667,-8.9027,4000
1694785542913245,-0.00452738,-0.00266314,-0.0146474,4000,0,0.385091,-4.26567,-8.98769,4000
1694785543886328,-0.0015979,0.0018642,-0.0170442,4000,0,0.456917,-4.23096,-8.91467,4000
1694785544896729,-0.000266316,-0.00186421,-0.0167779,4000,0,0.52994,-4.23335,-8.9434,4000
1694785545917098,-0.00133157,-0.00639159,-0.0133158,4000,0,0.647256,-4.21779,-8.93143,4000
1694785546917194,-0.00346211,-0.00772316,-0.0138484,4000,0,0.725067,-4.15195,-8.92305,4000
1694785547893178,0.00106527,-0.000266317,-0.0157127,4000,0,0.792105,-4.22138,-8.91706,4000
1694785548820495,-0.00426105,-0.0018642,-0.0146474,4000,0,0.861537,-4.14477,-8.91108,4000
1694785549885454,0.00452737,-0.00372843,-0.0162453,4000,0,0.938151,-4.14955,-8.87397,4000
1694785550904984,0.00506,-0.00133158,-0.0167779,4000,0,0.97167,-4.13639,-8.9015,4000
1694785551819562,-1.08751e-08,0.00532634,-0.0186421,4000,0,1.03272,-4.11125,-8.87516,4000
1694785552822571,-0.000266324,-0.000532626,-0.0130495,4000,0,1.11053,-4.08252,-8.89791,4000
1694785553860007,0.00186422,-0.0149137,-0.0125169,4000,0,1.17039,-4.07534,-8.87397,4000
1694785554795857,-0.000798949,-0.0122505,-0.0135821,4000,0,1.23264,-4.08611,-8.86559,4000
1694785555803181,-0.00239685,0.000266328,-0.0133158,4000,0,1.26376,-4.03224,-8.91826,4000
1694785556837029,0.00399475,-0.00612527,-0.0127832,4000,0,1.33798,-4.05498,-8.88235,4000
1694785557842566,2.55327e-09,0.00133159,-0.0157127,4000,0,1.42178,-4.01189,-8.90868,4000
1694785558798566,0.00372842,-0.00213052,-0.0154463,4000,0,1.48523,-4.00231,-8.93382,4000
1694785559528239,-0.00372842,-0.00372842,-0.00958739,4000,0,1.51037,-3.964,-8.91227,4000
1694785560536596,-0.000798945,0.000532634,-0.010919,4000,0,1.57501,-3.93886,-8.89432,4000
1694785561553652,-0.00745683,-0.00159789,-0.0189085,4000,0,1.59895,-3.92091,-8.90629,4000
1694785562593763,-0.00292947,0.00213053,-0.0154463,4000,0,1.67317,-3.89098,-9.01044,4000
1694785563600948,0.0015979,-0.00292948,-0.0125169,4000,0,1.75936,-3.85746,-8.95178,4000
1694785564600433,0.00319581,-0.0066579,-0.00932106,4000,0,1.79647,-3.84789,-8.92305,4000
1694785565647053,-0.00213054,0.00585896,-0.0162453,4000,0,1.85992,-3.88619,-8.91586,4000
1694785566660719,0.00186422,-0.00106526,-0.0143811,4000,0,1.90182,-3.79521,-8.87876,4000
1694785567705102,0.000266317,-0.00399475,-0.0127832,4000,0,1.97484,-3.81676,-8.94699,4000
